{
  "type": "FeatureCollection",
  "features": [
    {
      "type": "Feature",
      "properties": {
        "name": "尾久駅",
        "_markerType": "Icon",
        "_iconUrl": "https://maps.gsi.go.jp/portal/sys/v4/symbols/080.png",
        "_iconSize": [
          20,
          20
        ],
        "_iconAnchor": [
          10,
          10
        ]
      },
      "geometry": {
        "type": "Point",
        "coordinates": [
          139.754704,
          35.746699
        ]
      }
    },
    {
      "type": "Feature",
      "properties": {
        "name": "荒川区vs北区 狭隘な道での境界線",
        "_markerType": "Icon",
        "_iconUrl": "https://maps.gsi.go.jp/portal/sys/v4/symbols/080.png",
        "_iconSize": [
          20,
          20
        ],
        "_iconAnchor": [
          10,
          10
        ]
      },
      "geometry": {
        "type": "Point",
        "coordinates": [
          139.749489,
          35.751158
        ]
      }
    },
    {
      "type": "Feature",
      "properties": {
        "name": "読売新聞の印刷工場",
        "_markerType": "Icon",
        "_iconUrl": "https://maps.gsi.go.jp/portal/sys/v4/symbols/080.png",
        "_iconSize": [
          20,
          20
        ],
        "_iconAnchor": [
          10,
          10
        ]
      },
      "geometry": {
        "type": "Point",
        "coordinates": [
          139.75105,
          35.753987
        ]
      }
    },
    {
      "type": "Feature",
      "properties": {
        "name": "白山神社",
        "_markerType": "Icon",
        "_iconUrl": "https://maps.gsi.go.jp/portal/sys/v4/symbols/080.png",
        "_iconSize": [
          20,
          20
        ],
        "_iconAnchor": [
          10,
          10
        ]
      },
      "geometry": {
        "type": "Point",
        "coordinates": [
          139.750192,
          35.754545
        ]
      }
    },
    {
      "type": "Feature",
      "properties": {
        "name": "東京書籍",
        "_markerType": "Icon",
        "_iconUrl": "https://maps.gsi.go.jp/portal/sys/v4/symbols/080.png",
        "_iconSize": [
          20,
          20
        ],
        "_iconAnchor": [
          10,
          10
        ]
      },
      "geometry": {
        "type": "Point",
        "coordinates": [
          139.744844,
          35.753735
        ]
      }
    },
    {
      "type": "Feature",
      "properties": {
        "name": "コーナンPRO王子堀船",
        "_markerType": "Icon",
        "_iconUrl": "https://maps.gsi.go.jp/portal/sys/v4/symbols/080.png",
        "_iconSize": [
          20,
          20
        ],
        "_iconAnchor": [
          10,
          10
        ]
      },
      "geometry": {
        "type": "Point",
        "coordinates": [
          139.744511,
          35.751933
        ]
      }
    },
    {
      "type": "Feature",
      "properties": {
        "name": "国立印刷局",
        "_markerType": "Icon",
        "_iconUrl": "https://maps.gsi.go.jp/portal/sys/v4/symbols/080.png",
        "_iconSize": [
          20,
          20
        ],
        "_iconAnchor": [
          10,
          10
        ]
      },
      "geometry": {
        "type": "Point",
        "coordinates": [
          139.73927,
          35.754445
        ]
      }
    }
  ]
}